{
	"total":"74",
	"lists":[
		{
			"name":"新北区",
			"lat":"31.836426",
			"lng":"119.977267",
			"num":"21",
			"childs":[
				{
					"name":"九州花园缇香郡",
					"lat":"31.855891",
					"lng":"119.95574"
				},
				{
					"name":"香树湾馨苑",
					"lat":"31.844359",
					"lng":"119.994403"
				},
				{
					"name":"锦绣天地",
					"lat":"31.825584",
					"lng":"119.944098"
				},
				{
					"name":"长兴秀江南",
					"lat":"31.83761",
					"lng":"119.969107"
				},
				{
					"name":"牡丹祥龙湾",
					"lat":"31.819693",
					"lng":"119.994116"
				},
				{
					"name":"世茂香槟湖",
					"lat":"31.84988",
					"lng":"119.930156"
				}
			]
		},
		{
			"name":"钟楼区",
			"lat":"31.808445",
			"lng":"119.907703",
			"num":"22",
			"childs":[
				{
					"name":"九州花园缇香郡",
					"lat":"31.855891",
					"lng":"119.95574"
				},
				{
					"name":"香树湾馨苑",
					"lat":"31.844359",
					"lng":"119.994403"
				},
				{
					"name":"锦绣天地",
					"lat":"31.825584",
					"lng":"119.944098"
				},
				{
					"name":"长兴秀江南",
					"lat":"31.83761",
					"lng":"119.969107"
				},
				{
					"name":"牡丹祥龙湾",
					"lat":"31.819693",
					"lng":"119.994116"
				},
				{
					"name":"世茂香槟湖",
					"lat":"31.84988",
					"lng":"119.930156"
				}
			]
		},
		{
			"name":"武进区",
			"lat":"31.707299",
			"lng":"119.948571",
			"num":"23",
			"childs":[
				{
					"name":"九州花园缇香郡",
					"lat":"31.855891",
					"lng":"119.95574"
				},
				{
					"name":"香树湾馨苑",
					"lat":"31.844359",
					"lng":"119.994403"
				},
				{
					"name":"锦绣天地",
					"lat":"31.825584",
					"lng":"119.944098"
				},
				{
					"name":"长兴秀江南",
					"lat":"31.83761",
					"lng":"119.969107"
				},
				{
					"name":"牡丹祥龙湾",
					"lat":"31.819693",
					"lng":"119.994116"
				},
				{
					"name":"世茂香槟湖",
					"lat":"31.84988",
					"lng":"119.930156"
				}
			]
		},
		{
			"name":"天宁区",
			"lat":"31.785814",
			"lng":"119.981354",
			"num":"24",
			"childs":[
				{
					"name":"九州花园缇香郡",
					"lat":"31.855891",
					"lng":"119.95574"
				},
				{
					"name":"香树湾馨苑",
					"lat":"31.844359",
					"lng":"119.994403"
				},
				{
					"name":"锦绣天地",
					"lat":"31.825584",
					"lng":"119.944098"
				},
				{
					"name":"长兴秀江南",
					"lat":"31.83761",
					"lng":"119.969107"
				},
				{
					"name":"牡丹祥龙湾",
					"lat":"31.819693",
					"lng":"119.994116"
				},
				{
					"name":"世茂香槟湖",
					"lat":"31.84988",
					"lng":"119.930156"
				}
			]
		}
	]
}