{
	"lists":[
		{
			"name":"九州花园缇香郡",
			"lat":"31.855891",
			"lng":"119.95574"
		},
		{
			"name":"香树湾馨苑",
			"lat":"31.844359",
			"lng":"119.994403"
		},
		{
			"name":"锦绣天地",
			"lat":"31.825584",
			"lng":"119.944098"
		},
		{
			"name":"长兴秀江南",
			"lat":"31.83761",
			"lng":"119.969107"
		},
		{
			"name":"牡丹祥龙湾",
			"lat":"31.819693",
			"lng":"119.994116"
		},
		{
			"name":"世茂香槟湖",
			"lat":"31.84988",
			"lng":"119.930156"
		}
	]
}